{
"type": "FeatureCollection",
"name": "church_mos_200",
"crs": { "type": "name", "properties": { "name": "urn:ogc:def:crs:OGC:1.3:CRS84" } },
"features": [
{ "type": "Feature", "properties": { "geo_id": 1, "Name": "Церковь Усекновения Главы Иоанна Предтечи в Братеево (новая) (действ.)", "temples_id": "10819", "prog_200": 1.0 }, "geometry": { "type": "Point", "coordinates": [ 37.765675, 55.631582, 0.0 ] } },
{ "type": "Feature", "properties": { "geo_id": 2, "Name": "Церковь Иоанна Кронштадтского в Новых Черёмушках (действ.)", "temples_id": "14501", "prog_200": 1.0 }, "geometry": { "type": "Point", "coordinates": [ 37.56187, 55.667126, 0.0 ] } },
{ "type": "Feature", "properties": { "geo_id": 3, "Name": "Церковь Иконы Божией Матери Воспитание в Некрасовке (действ.)", "temples_id": "14529", "prog_200": 1.0 }, "geometry": { "type": "Point", "coordinates": [ 37.914373, 55.682515, 0.0 ] } },
{ "type": "Feature", "properties": { "geo_id": 4, "Name": "Церковь Новомучеников и Исповедников Российских в Строгино (малая) (не сохр.)", "temples_id": "14631", "prog_200": 1.0 }, "geometry": { "type": "Point", "coordinates": [ 37.402196, 55.803336, 0.0 ] } },
{ "type": "Feature", "properties": { "geo_id": 5, "Name": "Церковь Покрова Пресвятой Богородицы на Люберецких Полях (действ.)", "temples_id": "15934", "prog_200": 1.0 }, "geometry": { "type": "Point", "coordinates": [ 37.927074, 55.704827, 0.0 ] } },
{ "type": "Feature", "properties": { "geo_id": 6, "Name": "Церковь Ермогена, патриарха Всероссийского, в Крылатском (действ.)", "temples_id": "16416", "prog_200": 1.0 }, "geometry": { "type": "Point", "coordinates": [ 37.406114, 55.769662, 0.0 ] } },
{ "type": "Feature", "properties": { "geo_id": 7, "Name": "Церковь Кирилла и Мефодия на Дубровке (действ.)", "temples_id": "16418", "prog_200": 1.0 }, "geometry": { "type": "Point", "coordinates": [ 37.671843, 55.725301, 0.0 ] } },
{ "type": "Feature", "properties": { "geo_id": 8, "Name": "Церковь Димитрия Донского в Северном Медведково (действ.)", "temples_id": "16861", "prog_200": 1.0 }, "geometry": { "type": "Point", "coordinates": [ 37.642899, 55.88452, 0.0 ] } },
{ "type": "Feature", "properties": { "geo_id": 9, "Name": "Церковь Сретения Господня в Жулебино (действ.)", "temples_id": "17238", "prog_200": 1.0 }, "geometry": { "type": "Point", "coordinates": [ 37.8528, 55.692818, 0.0 ] } },
{ "type": "Feature", "properties": { "geo_id": 10, "Name": "Церковь Александра Невского в Зеленограде (сохр.)", "temples_id": "17239", "prog_200": 1.0 }, "geometry": { "type": "Point", "coordinates": [ 37.15386, 55.990422, 0.0 ] } },
{ "type": "Feature", "properties": { "geo_id": 11, "Name": "Церковь Алексия Московского (Мечева) праведного на Вешняковской (сохр.)", "temples_id": "17953", "prog_200": 1.0 }, "geometry": { "type": "Point", "coordinates": [ 37.82887, 55.73209, 0.0 ] } },
{ "type": "Feature", "properties": { "geo_id": 12, "Name": "Церковь Введения Пресвятой Богородицы во Храм в Вешняках (действ.)", "temples_id": "17954", "prog_200": 1.0 }, "geometry": { "type": "Point", "coordinates": [ 37.81728, 55.742611, 0.0 ] } },
{ "type": "Feature", "properties": { "geo_id": 13, "Name": "Церковь Спиридона, епископа Тримифунтского, в Нагатинском Затоне (действ.)", "temples_id": "17956", "prog_200": 1.0 }, "geometry": { "type": "Point", "coordinates": [ 37.695471, 55.688879, 0.0 ] } },
{ "type": "Feature", "properties": { "geo_id": 14, "Name": "Церковь Иконы Божией Матери Казанская в Тёплом Стане (действ.)", "temples_id": "17957", "prog_200": 1.0 }, "geometry": { "type": "Point", "coordinates": [ 37.48429, 55.647801, 0.0 ] } },
{ "type": "Feature", "properties": { "geo_id": 15, "Name": "Церковь Спаса Всемилостивого в Митино (действ.)", "temples_id": "17958", "prog_200": 1.0 }, "geometry": { "type": "Point", "coordinates": [ 37.386325, 55.836928, 0.0 ] } },
{ "type": "Feature", "properties": { "geo_id": 16, "Name": "Церковь Татианы Мученицы в Люблино (деревянная) (действ.)", "temples_id": "17967", "prog_200": 1.0 }, "geometry": { "type": "Point", "coordinates": [ 37.765707, 55.675902, 0.0 ] } },
{ "type": "Feature", "properties": { "geo_id": 17, "Name": "Церковь Иконы Божией Матери Иверская в Очаково-Матвеевском (действ.)", "temples_id": "18060", "prog_200": 1.0 }, "geometry": { "type": "Point", "coordinates": [ 37.47489, 55.68602, 0.0 ] } },
{ "type": "Feature", "properties": { "geo_id": 18, "Name": "Церковь Александра Невского при Московском государственном институте международных отношений (действ.)", "temples_id": "18061", "prog_200": 1.0 }, "geometry": { "type": "Point", "coordinates": [ 37.481506, 55.678955, 0.0 ] } },
{ "type": "Feature", "properties": { "geo_id": 19, "Name": "Церковь Николая Чудотворца при Московском государственном институте международных отношений (действ.)", "temples_id": "18097", "prog_200": 1.0 }, "geometry": { "type": "Point", "coordinates": [ 37.480965, 55.67926, 0.0 ] } },
{ "type": "Feature", "properties": { "geo_id": 20, "Name": "Церковь Входа Господня в Иерусалим в Восточном Бирюлёво (действ.)", "temples_id": "18220", "prog_200": 1.0 }, "geometry": { "type": "Point", "coordinates": [ 37.667463, 55.578578, 0.0 ] } },
{ "type": "Feature", "properties": { "geo_id": 21, "Name": "Церковь Стефана, епископа Великопермского, в Южном Бутово (действ.)", "temples_id": "18276", "prog_200": 1.0 }, "geometry": { "type": "Point", "coordinates": [ 37.512392, 55.544676, 0.0 ] } },
{ "type": "Feature", "properties": { "geo_id": 22, "Name": "Церковь Введения Пресвятой Богородицы во Храм в Южном Бутово (сохр.)", "temples_id": "18277", "prog_200": 1.0 }, "geometry": { "type": "Point", "coordinates": [ 37.526474, 55.535825, 0.0 ] } },
{ "type": "Feature", "properties": { "geo_id": 23, "Name": "Церковь Феодора Тирона в Хорошёво-Мнёвниках (не сохр.)", "temples_id": "18791", "prog_200": 1.0 }, "geometry": { "type": "Point", "coordinates": [ 37.482072, 55.787084, 0.0 ] } },
{ "type": "Feature", "properties": { "geo_id": 24, "Name": "Церковь Иова, патриарха Московского, в Кунцево (действ.)", "temples_id": "18805", "prog_200": 1.0 }, "geometry": { "type": "Point", "coordinates": [ 37.39952, 55.716838, 0.0 ] } },
{ "type": "Feature", "properties": { "geo_id": 25, "Name": "Церковь Царственных Страстотерпцев в Войковском (действ.)", "temples_id": "18807", "prog_200": 1.0 }, "geometry": { "type": "Point", "coordinates": [ 37.512497, 55.823908, 0.0 ] } },
{ "type": "Feature", "properties": { "geo_id": 26, "Name": "Церковь Иконы Божией Матери Казанская в Солнцево (действ.)", "temples_id": "18808", "prog_200": 1.0 }, "geometry": { "type": "Point", "coordinates": [ 37.378518, 55.630662, 0.0 ] } },
{ "type": "Feature", "properties": { "geo_id": 27, "Name": "Церковь Луки, архиепископа Крымского, в Марьинском парке (действ.)", "temples_id": "19040", "prog_200": 1.0 }, "geometry": { "type": "Point", "coordinates": [ 37.768314, 55.667502, 0.0 ] } },
{ "type": "Feature", "properties": { "geo_id": 28, "Name": "Церковь Димитрия Донского в Северном Бутово (действ.)", "temples_id": "19146", "prog_200": 1.0 }, "geometry": { "type": "Point", "coordinates": [ 37.57232, 55.56041, 0.0 ] } },
{ "type": "Feature", "properties": { "geo_id": 29, "Name": "Церковь Иконы Божией Матери Троеручица в Южном Бутово (действ.)", "temples_id": "19147", "prog_200": 1.0 }, "geometry": { "type": "Point", "coordinates": [ 37.542605, 55.545043, 0.0 ] } },
{ "type": "Feature", "properties": { "geo_id": 30, "Name": "Церковь Илии Пророка в Северном Бутово (действ.)", "temples_id": "19155", "prog_200": 1.0 }, "geometry": { "type": "Point", "coordinates": [ 37.56199, 55.569938, 0.0 ] } },
{ "type": "Feature", "properties": { "geo_id": 31, "Name": "Церковь Иконы Божией Матери Державная при ГУ МВД по ЦФО (действ.)", "temples_id": "19885", "prog_200": 1.0 }, "geometry": { "type": "Point", "coordinates": [ 37.610538, 55.724477, 0.0 ] } },
{ "type": "Feature", "properties": { "geo_id": 32, "Name": "Церковь Николая Чудотворца в Зюзино (действ.)", "temples_id": "19888", "prog_200": 1.0 }, "geometry": { "type": "Point", "coordinates": [ 37.5874, 55.64807, 0.0 ] } },
{ "type": "Feature", "properties": { "geo_id": 33, "Name": "Церковь Владимира равноапостольного в Отрадном (действ.)", "temples_id": "20005", "prog_200": 1.0 }, "geometry": { "type": "Point", "coordinates": [ 37.621519, 55.870501, 0.0 ] } },
{ "type": "Feature", "properties": { "geo_id": 34, "Name": "Церковь Торжества Православия в Алтуфьево (действ.)", "temples_id": "20006", "prog_200": 1.0 }, "geometry": { "type": "Point", "coordinates": [ 37.584868, 55.87698, 0.0 ] } },
{ "type": "Feature", "properties": { "geo_id": 35, "Name": "Церковь Серафима (Чичагова), митрополита Ленинградского, в Бутово (действ.)", "temples_id": "20253", "prog_200": 1.0 }, "geometry": { "type": "Point", "coordinates": [ 37.573114, 55.541586, 0.0 ] } },
{ "type": "Feature", "properties": { "geo_id": 36, "Name": "Церковь Спиридона, епископа Тримифунтского, в Фили-Давыдково (деревянная) (действ.)", "temples_id": "20437", "prog_200": 1.0 }, "geometry": { "type": "Point", "coordinates": [ 37.495413, 55.742643, 0.0 ] } },
{ "type": "Feature", "properties": { "geo_id": 37, "Name": "Церковь Преображения Господня в Нагатино-Садовниках (действ.)", "temples_id": "20438", "prog_200": 1.0 }, "geometry": { "type": "Point", "coordinates": [ 37.642381, 55.665609, 0.0 ] } },
{ "type": "Feature", "properties": { "geo_id": 38, "Name": "Церковь Троицы Живоначальной в Кожухово (действ.)", "temples_id": "20525", "prog_200": 1.0 }, "geometry": { "type": "Point", "coordinates": [ 37.879898, 55.714246, 0.0 ] } },
{ "type": "Feature", "properties": { "geo_id": 39, "Name": "Церковь Иконы Божией Матери Владимирская в Матвеевском (действ.)", "temples_id": "20542", "prog_200": 1.0 }, "geometry": { "type": "Point", "coordinates": [ 37.473694, 55.712703, 0.0 ] } },
{ "type": "Feature", "properties": { "geo_id": 40, "Name": "Церковь Марии Египетской на Братеевском холме (действ.)", "temples_id": "20689", "prog_200": 1.0 }, "geometry": { "type": "Point", "coordinates": [ 37.743925, 55.6386, 0.0 ] } },
{ "type": "Feature", "properties": { "geo_id": 41, "Name": "Церковь Иконы Божией Матери Отрада или Утешение на Каховке (деревянная) (действ.)", "temples_id": "20758", "prog_200": 1.0 }, "geometry": { "type": "Point", "coordinates": [ 37.596723, 55.653464, 0.0 ] } },
{ "type": "Feature", "properties": { "geo_id": 42, "Name": "Церковь Татианы Мученицы в Люблино (каменная) (сохр.)", "temples_id": "21149", "prog_200": 1.0 }, "geometry": { "type": "Point", "coordinates": [ 37.766165, 55.675843, 0.0 ] } },
{ "type": "Feature", "properties": { "geo_id": 43, "Name": "Церковь Николая Чудотворца в Щукино (деревянная) (действ.)", "temples_id": "21219", "prog_200": 1.0 }, "geometry": { "type": "Point", "coordinates": [ 37.463724, 55.810146, 0.0 ] } },
{ "type": "Feature", "properties": { "geo_id": 44, "Name": "Церковь Новомучеников и Исповедников Российских в Строгино (действ.)", "temples_id": "21221", "prog_200": 1.0 }, "geometry": { "type": "Point", "coordinates": [ 37.401931, 55.803082, 0.0 ] } },
{ "type": "Feature", "properties": { "geo_id": 45, "Name": "Церковь Николая II Царя-страстотерпца в Аннино (временная) (действ.)", "temples_id": "21222", "prog_200": 1.0 }, "geometry": { "type": "Point", "coordinates": [ 37.594855, 55.582442, 0.0 ] } },
{ "type": "Feature", "properties": { "geo_id": 46, "Name": "Церковь Иконы Божией Матери Неопалимая Купина в Отрадном (сохр.)", "temples_id": "21497", "prog_200": 1.0 }, "geometry": { "type": "Point", "coordinates": [ 37.622606, 55.869918, 0.0 ] } },
{ "type": "Feature", "properties": { "geo_id": 47, "Name": "Церковь Василия Московского (Смирнова) Священномученика в Коньково (действ.)", "temples_id": "21792", "prog_200": 1.0 }, "geometry": { "type": "Point", "coordinates": [ 37.538972, 55.633109, 0.0 ] } },
{ "type": "Feature", "properties": { "geo_id": 48, "Name": "Церковь Евфросинии Полоцкой в Кунцево (действ.)", "temples_id": "22027", "prog_200": 1.0 }, "geometry": { "type": "Point", "coordinates": [ 37.426276, 55.734145, 0.0 ] } },
{ "type": "Feature", "properties": { "geo_id": 49, "Name": "Церковь Иоанна (Восторгова) Священномученика в Останкино (действ.)", "temples_id": "22077", "prog_200": 1.0 }, "geometry": { "type": "Point", "coordinates": [ 37.618969, 55.814446, 0.0 ] } },
{ "type": "Feature", "properties": { "geo_id": 50, "Name": "Церковь Иконы Божией Матери Неупиваемая Чаша в Ростокино (действ.)", "temples_id": "22078", "prog_200": 1.0 }, "geometry": { "type": "Point", "coordinates": [ 37.658782, 55.831315, 0.0 ] } },
{ "type": "Feature", "properties": { "geo_id": 51, "Name": "Церковь Похвалы Пресвятой Богородицы в Зябликово (действ.)", "temples_id": "22079", "prog_200": 1.0 }, "geometry": { "type": "Point", "coordinates": [ 37.729742, 55.61586, 0.0 ] } },
{ "type": "Feature", "properties": { "geo_id": 52, "Name": "Церковь Покрова Пресвятой Богородицы в Орехово-Борисово Южном (новая) (действ.)", "temples_id": "22080", "prog_200": 1.0 }, "geometry": { "type": "Point", "coordinates": [ 37.744414, 55.606509, 0.0 ] } },
{ "type": "Feature", "properties": { "geo_id": 53, "Name": "Церковь Иконы Божией Матери Умягчение злых сердец в Коньково (деревянная) (действ.)", "temples_id": "22314", "prog_200": 1.0 }, "geometry": { "type": "Point", "coordinates": [ 37.534794, 55.649785, 0.0 ] } },
{ "type": "Feature", "properties": { "geo_id": 54, "Name": "Церковь Иконы Божией Матери Прибавление Ума в Черёмушках (действ.)", "temples_id": "22315", "prog_200": 1.0 }, "geometry": { "type": "Point", "coordinates": [ 37.546439, 55.656829, 0.0 ] } },
{ "type": "Feature", "properties": { "geo_id": 55, "Name": "Церковь Луки, архиепископа Крымского, в Зюзино (действ.)", "temples_id": "22316", "prog_200": 1.0 }, "geometry": { "type": "Point", "coordinates": [ 37.60486, 55.642548, 0.0 ] } },
{ "type": "Feature", "properties": { "geo_id": 56, "Name": "Церковь Кирилла и Марии Радонежских в Марьино (действ.)", "temples_id": "22323", "prog_200": 1.0 }, "geometry": { "type": "Point", "coordinates": [ 37.713913, 55.646612, 0.0 ] } },
{ "type": "Feature", "properties": { "geo_id": 57, "Name": "Церковь Сергия Радонежского в Гольяново (действ.)", "temples_id": "22418", "prog_200": 1.0 }, "geometry": { "type": "Point", "coordinates": [ 37.832994, 55.824051, 0.0 ] } },
{ "type": "Feature", "properties": { "geo_id": 58, "Name": "Церковь Марии Магдалины в Южном Бутово (сохр.)", "temples_id": "22419", "prog_200": 1.0 }, "geometry": { "type": "Point", "coordinates": [ 37.538615, 55.534509, 0.0 ] } },
{ "type": "Feature", "properties": { "geo_id": 59, "Name": "Церковь Власия, епископа Севастийского, и Харалампия, епископа Магнезийского, в Орехово-Борисово (действ.)", "temples_id": "22420", "prog_200": 1.0 }, "geometry": { "type": "Point", "coordinates": [ 37.733332, 55.634502, 0.0 ] } },
{ "type": "Feature", "properties": { "geo_id": 60, "Name": "Церковь Жен Мироносиц в Марьино (действ.)", "temples_id": "22422", "prog_200": 1.0 }, "geometry": { "type": "Point", "coordinates": [ 37.77184, 55.662832, 0.0 ] } },
{ "type": "Feature", "properties": { "geo_id": 61, "Name": "Церковь Саввы Освященного в Люблино (действ.)", "temples_id": "22423", "prog_200": 1.0 }, "geometry": { "type": "Point", "coordinates": [ 37.778793, 55.679423, 0.0 ] } },
{ "type": "Feature", "properties": { "geo_id": 62, "Name": "Часовня Иконы Божией Матери Знамение Курская Коренная в Вязовке (сохр.)", "temples_id": "22424", "prog_200": 1.0 }, "geometry": { "type": "Point", "coordinates": [ 37.781588, 55.709276, 0.0 ] } },
{ "type": "Feature", "properties": { "geo_id": 63, "Name": "Церковь Серафима Саровского в Восточном Дегунино (временная) (не сохр.)", "temples_id": "22427", "prog_200": 1.0 }, "geometry": { "type": "Point", "coordinates": [ 37.559245, 55.873462, 0.0 ] } },
{ "type": "Feature", "properties": { "geo_id": 64, "Name": "Церковь Сретения Господня в Западном Бирюлёво (временная) (действ.)", "temples_id": "22632", "prog_200": 1.0 }, "geometry": { "type": "Point", "coordinates": [ 37.654078, 55.580249, 0.0 ] } },
{ "type": "Feature", "properties": { "geo_id": 65, "Name": "Церковь Александра Пересвета и Андрея Осляби Радонежских в Северном Бутово (действ.)", "temples_id": "22634", "prog_200": 1.0 }, "geometry": { "type": "Point", "coordinates": [ 37.570152, 55.578347, 0.0 ] } },
{ "type": "Feature", "properties": { "geo_id": 66, "Name": "Церковь Собора Киево-Печерских Святых в Старых Черемушках (действ.)", "temples_id": "22635", "prog_200": 1.0 }, "geometry": { "type": "Point", "coordinates": [ 37.575501, 55.677739, 0.0 ] } },
{ "type": "Feature", "properties": { "geo_id": 67, "Name": "Церковь Ермогена, патриарха Всероссийского, в Гольяново (действ.)", "temples_id": "22639", "prog_200": 1.0 }, "geometry": { "type": "Point", "coordinates": [ 37.799194, 55.820297, 0.0 ] } },
{ "type": "Feature", "properties": { "geo_id": 68, "Name": "Церковь Петра и Февронии Муромских в Марьино (действ.)", "temples_id": "22685", "prog_200": 1.0 }, "geometry": { "type": "Point", "coordinates": [ 37.77754, 55.652175, 0.0 ] } },
{ "type": "Feature", "properties": { "geo_id": 69, "Name": "Церковь Ксении Петербургской в Бескудниково (действ.)", "temples_id": "22687", "prog_200": 1.0 }, "geometry": { "type": "Point", "coordinates": [ 37.554661, 55.876453, 0.0 ] } },
{ "type": "Feature", "properties": { "geo_id": 70, "Name": "Церковь Феодора Ушакова в Новогиреево (действ.)", "temples_id": "22701", "prog_200": 1.0 }, "geometry": { "type": "Point", "coordinates": [ 37.796844, 55.743781, 0.0 ] } },
{ "type": "Feature", "properties": { "geo_id": 71, "Name": "Церковь Даниила Московского в Метрогородке (действ.)", "temples_id": "23120", "prog_200": 1.0 }, "geometry": { "type": "Point", "coordinates": [ 37.766496, 55.828692, 0.0 ] } },
{ "type": "Feature", "properties": { "geo_id": 72, "Name": "Церковь Андрея Первозванного в Метрогородке (сохр.)", "temples_id": "23121", "prog_200": 1.0 }, "geometry": { "type": "Point", "coordinates": [ 37.767122, 55.829079, 0.0 ] } },
{ "type": "Feature", "properties": { "geo_id": 73, "Name": "Церковь Иоанна Богослова в Южном Тушино (не сохр.)", "temples_id": "23274", "prog_200": 1.0 }, "geometry": { "type": "Point", "coordinates": [ 37.465003, 55.8392, 0.0 ] } },
{ "type": "Feature", "properties": { "geo_id": 74, "Name": "Церковь Иконы Божией Матери Иверская в Бабушкине (действ.)", "temples_id": "23275", "prog_200": 1.0 }, "geometry": { "type": "Point", "coordinates": [ 37.69844, 55.888678, 0.0 ] } },
{ "type": "Feature", "properties": { "geo_id": 75, "Name": "Церковь Ермогена, Патриарха Всероссийского, в Южном Тушино (деревянная) (действ.)", "temples_id": "23312", "prog_200": 1.0 }, "geometry": { "type": "Point", "coordinates": [ 37.428613, 55.843873, 0.0 ] } },
{ "type": "Feature", "properties": { "geo_id": 76, "Name": "Церковь Ольги равноапостольной в Солнцево (действ.)", "temples_id": "23332", "prog_200": 1.0 }, "geometry": { "type": "Point", "coordinates": [ 37.381478, 55.636073, 0.0 ] } },
{ "type": "Feature", "properties": { "geo_id": 77, "Name": "Церковь Александра Свирского в Кожухово (не сохр.)", "temples_id": "23344", "prog_200": 1.0 }, "geometry": { "type": "Point", "coordinates": [ 37.88044, 55.714664, 0.0 ] } },
{ "type": "Feature", "properties": { "geo_id": 78, "Name": "Церковь Иконы Божией Матери Умягчение злых сердец в Косино-Ухтомском (действ.)", "temples_id": "23546", "prog_200": 1.0 }, "geometry": { "type": "Point", "coordinates": [ 37.87176, 55.703127, 0.0 ] } },
{ "type": "Feature", "properties": { "geo_id": 79, "Name": "Церковь Симеона и Анны в Новых Черемушках (действ.)", "temples_id": "23560", "prog_200": 1.0 }, "geometry": { "type": "Point", "coordinates": [ 37.564634, 55.663372, 0.0 ] } },
{ "type": "Feature", "properties": { "geo_id": 80, "Name": "Церковь Михаила Архангела в Царицыно (действ.)", "temples_id": "23576", "prog_200": 1.0 }, "geometry": { "type": "Point", "coordinates": [ 37.671245, 55.622517, 0.0 ] } },
{ "type": "Feature", "properties": { "geo_id": 81, "Name": "Церковь Владимира равноапостольного в Очаково-Матвеевском (действ.)", "temples_id": "23586", "prog_200": 1.0 }, "geometry": { "type": "Point", "coordinates": [ 37.458871, 55.674573, 0.0 ] } },
{ "type": "Feature", "properties": { "geo_id": 82, "Name": "Церковь Иконы Божией Матери Достойно есть (Милующая) в Царицыно (действ.)", "temples_id": "23620", "prog_200": 1.0 }, "geometry": { "type": "Point", "coordinates": [ 37.652612, 55.608688, 0.0 ] } },
{ "type": "Feature", "properties": { "geo_id": 83, "Name": "Церковь Иконы Божией Матери Донская в Люблино (действ.)", "temples_id": "23621", "prog_200": 1.0 }, "geometry": { "type": "Point", "coordinates": [ 37.789411, 55.672759, 0.0 ] } },
{ "type": "Feature", "properties": { "geo_id": 84, "Name": "Церковь Успения Пресвятой Богородицы в Матвеевском (строит.)", "temples_id": "23710", "prog_200": 1.0 }, "geometry": { "type": "Point", "coordinates": [ 37.472867, 55.712774, 0.0 ] } },
{ "type": "Feature", "properties": { "geo_id": 85, "Name": "Церковь Николая II Царя-страстотерпца в Аннино (сохр.)", "temples_id": "23721", "prog_200": 1.0 }, "geometry": { "type": "Point", "coordinates": [ 37.595755, 55.582342, 0.0 ] } },
{ "type": "Feature", "properties": { "geo_id": 86, "Name": "Церковь Спиридона, епископа Тримифунтского, в Фили-Давыдково (сохр.)", "temples_id": "23722", "prog_200": 1.0 }, "geometry": { "type": "Point", "coordinates": [ 37.49643, 55.742708, 0.0 ] } },
{ "type": "Feature", "properties": { "geo_id": 87, "Name": "Церковь Иоанна Русского в Кунцево (каменная) (действ.)", "temples_id": "23734", "prog_200": 1.0 }, "geometry": { "type": "Point", "coordinates": [ 37.405314, 55.734441, 0.0 ] } },
{ "type": "Feature", "properties": { "geo_id": 88, "Name": "Церковь Иконы Божией Матери Знамение Курская Коренная в Вязовке (действ.)", "temples_id": "23791", "prog_200": 1.0 }, "geometry": { "type": "Point", "coordinates": [ 37.781214, 55.709319, 0.0 ] } },
{ "type": "Feature", "properties": { "geo_id": 89, "Name": "Церковь Матроны Московской в Дмитровском (временная) (сохр.)", "temples_id": "23800", "prog_200": 1.0 }, "geometry": { "type": "Point", "coordinates": [ 37.532284, 55.885885, 0.0 ] } },
{ "type": "Feature", "properties": { "geo_id": 90, "Name": "Церковь Матроны Московской в Дмитровском (действ.)", "temples_id": "23801", "prog_200": 1.0 }, "geometry": { "type": "Point", "coordinates": [ 37.531865, 55.885664, 0.0 ] } },
{ "type": "Feature", "properties": { "geo_id": 91, "Name": "Церковь Феодора Ушакова в Южном Бутово (действ.)", "temples_id": "23833", "prog_200": 1.0 }, "geometry": { "type": "Point", "coordinates": [ 37.542011, 55.544611, 0.0 ] } },
{ "type": "Feature", "properties": { "geo_id": 92, "Name": "Церковь Нины равноапостольной в Черёмушках (действ.)", "temples_id": "23875", "prog_200": 1.0 }, "geometry": { "type": "Point", "coordinates": [ 37.562148, 55.675326, 0.0 ] } },
{ "type": "Feature", "properties": { "geo_id": 93, "Name": "Церковь Иконы Божией Матери Боголюбская в Фили-Давыдково (действ.)", "temples_id": "23882", "prog_200": 1.0 }, "geometry": { "type": "Point", "coordinates": [ 37.468216, 55.720622, 0.0 ] } },
{ "type": "Feature", "properties": { "geo_id": 94, "Name": "Церковь Иконы Божией Матери Смоленская в Фили-Давыдково (сохр.)", "temples_id": "23883", "prog_200": 1.0 }, "geometry": { "type": "Point", "coordinates": [ 37.467793, 55.720467, 0.0 ] } },
{ "type": "Feature", "properties": { "geo_id": 95, "Name": "Церковь Иконы Божией Матери Казанская в Мещерском (деревянная) (не сохр.)", "temples_id": "23891", "prog_200": 1.0 }, "geometry": { "type": "Point", "coordinates": [ 37.408861, 55.675405, 0.0 ] } },
{ "type": "Feature", "properties": { "geo_id": 96, "Name": "Церковь Иконы Божией Матери Неопалимая Купина в Очаково-Матвеевском (строит.)", "temples_id": "23937", "prog_200": 1.0 }, "geometry": { "type": "Point", "coordinates": [ 37.459205, 55.674881, 0.0 ] } },
{ "type": "Feature", "properties": { "geo_id": 97, "Name": "Церковь Сергия Радонежского на Ходынском поле (новая) (действ.)", "temples_id": "24068", "prog_200": 1.0 }, "geometry": { "type": "Point", "coordinates": [ 37.537105, 55.787662, 0.0 ] } },
{ "type": "Feature", "properties": { "geo_id": 98, "Name": "Церковь Андрея Боголюбского на Волжском (деревянная) (не сохр.)", "temples_id": "24126", "prog_200": 1.0 }, "geometry": { "type": "Point", "coordinates": [ 37.747308, 55.708616, 0.0 ] } },
{ "type": "Feature", "properties": { "geo_id": 99, "Name": "Церковь Покрова Пресвятой Богородицы в Выхино (действ.)", "temples_id": "24166", "prog_200": 1.0 }, "geometry": { "type": "Point", "coordinates": [ 37.824094, 55.702582, 0.0 ] } },
{ "type": "Feature", "properties": { "geo_id": 100, "Name": "Церковь Сергия и Варвары (Островских) на Соколиной Горе (действ.)", "temples_id": "24192", "prog_200": 1.0 }, "geometry": { "type": "Point", "coordinates": [ 37.745077, 55.760389, 0.0 ] } },
{ "type": "Feature", "properties": { "geo_id": 101, "Name": "Церковь Владимира Равноапостольного в Митино (действ.)", "temples_id": "24424", "prog_200": 1.0 }, "geometry": { "type": "Point", "coordinates": [ 37.349389, 55.859228, 0.0 ] } },
{ "type": "Feature", "properties": { "geo_id": 102, "Name": "Церковь Всех Святых, в земле Российской просиявших, в Новых Черёмушках (действ.)", "temples_id": "24620", "prog_200": 1.0 }, "geometry": { "type": "Point", "coordinates": [ 37.561662, 55.666895, 0.0 ] } },
{ "type": "Feature", "properties": { "geo_id": 103, "Name": "Церковь Иоанна Кронштадтского в Головино (действ.)", "temples_id": "24798", "prog_200": 1.0 }, "geometry": { "type": "Point", "coordinates": [ 37.508172, 55.846308, 0.0 ] } },
{ "type": "Feature", "properties": { "geo_id": 104, "Name": "Церковь Иоанна Богослова в Измайлово (действ.)", "temples_id": "25091", "prog_200": 1.0 }, "geometry": { "type": "Point", "coordinates": [ 37.819222, 55.802425, 0.0 ] } },
{ "type": "Feature", "properties": { "geo_id": 105, "Name": "Церковь Илариона, архиепископа Верейского, в Черёмушках (строит.)", "temples_id": "25113", "prog_200": 1.0 }, "geometry": { "type": "Point", "coordinates": [ 37.546163, 55.656799, 0.0 ] } },
{ "type": "Feature", "properties": { "geo_id": 106, "Name": "Церковь Николая Чудотворца в Южном Тушино (действ.)", "temples_id": "25138", "prog_200": 1.0 }, "geometry": { "type": "Point", "coordinates": [ 37.465488, 55.83979, 0.0 ] } },
{ "type": "Feature", "properties": { "geo_id": 107, "Name": "Церковь Сергия Радонежского в Южном Тушино (временная) (не сохр.)", "temples_id": "25141", "prog_200": 1.0 }, "geometry": { "type": "Point", "coordinates": [ 37.40656, 55.835876, 0.0 ] } },
{ "type": "Feature", "properties": { "geo_id": 108, "Name": "Церковь Сергия Радонежского в Южном Тушино (строит.)", "temples_id": "25142", "prog_200": 1.0 }, "geometry": { "type": "Point", "coordinates": [ 37.406048, 55.835699, 0.0 ] } },
{ "type": "Feature", "properties": { "geo_id": 109, "Name": "Церковь Ермогена, Патриарха Всероссийского, в Южном Тушино (строит.)", "temples_id": "25146", "prog_200": 1.0 }, "geometry": { "type": "Point", "coordinates": [ 37.427593, 55.843142, 0.0 ] } },
{ "type": "Feature", "properties": { "geo_id": 110, "Name": "Церковь Бориса и Глеба в Новокосино (действ.)", "temples_id": "25148", "prog_200": 1.0 }, "geometry": { "type": "Point", "coordinates": [ 37.879614, 55.741661, 0.0 ] } },
{ "type": "Feature", "properties": { "geo_id": 111, "Name": "Церковь Андрея Боголюбского на Волжском (каменная) (действ.)", "temples_id": "25150", "prog_200": 1.0 }, "geometry": { "type": "Point", "coordinates": [ 37.74709, 55.709393, 0.0 ] } },
{ "type": "Feature", "properties": { "geo_id": 112, "Name": "Церковь Митрофана, епископа Воронежского, в Царицыно (временная) (действ.)", "temples_id": "25182", "prog_200": 1.0 }, "geometry": { "type": "Point", "coordinates": [ 37.660991, 55.629345, 0.0 ] } },
{ "type": "Feature", "properties": { "geo_id": 113, "Name": "Церковь Митрофана, епископа Воронежского, в Царицыно (строит.)", "temples_id": "25183", "prog_200": 1.0 }, "geometry": { "type": "Point", "coordinates": [ 37.661194, 55.629569, 0.0 ] } },
{ "type": "Feature", "properties": { "geo_id": 114, "Name": "Церковь Чуда Михаила Архангела в Хонех на Братеевском холме (строит.)", "temples_id": "25184", "prog_200": 1.0 }, "geometry": { "type": "Point", "coordinates": [ 37.743373, 55.638053, 0.0 ] } },
{ "type": "Feature", "properties": { "geo_id": 115, "Name": "Церковь Благовещения Пресвятой Богородицы в Царицыно (действ.)", "temples_id": "25186", "prog_200": 1.0 }, "geometry": { "type": "Point", "coordinates": [ 37.646135, 55.624063, 0.0 ] } },
{ "type": "Feature", "properties": { "geo_id": 116, "Name": "Часовня Иконы Божией Матери Достойно есть (Милующая) в Царицыно (не сохр.)", "temples_id": "25188", "prog_200": 1.0 }, "geometry": { "type": "Point", "coordinates": [ 37.652254, 55.608585, 0.0 ] } },
{ "type": "Feature", "properties": { "geo_id": 117, "Name": "Церковь Киприана, митрополита Московского, в Центральном Чертаново (деревянная) (сохр.)", "temples_id": "25248", "prog_200": 1.0 }, "geometry": { "type": "Point", "coordinates": [ 37.578717, 55.605246, 0.0 ] } },
{ "type": "Feature", "properties": { "geo_id": 118, "Name": "Церковь Киприана, митрополита Московского, в Центральном Чертаново (каменная) (строит.)", "temples_id": "25249", "prog_200": 1.0 }, "geometry": { "type": "Point", "coordinates": [ 37.578301, 55.605026, 0.0 ] } },
{ "type": "Feature", "properties": { "geo_id": 119, "Name": "Церковь Феодора Ушакова в Нагорном (временная) (действ.)", "temples_id": "25254", "prog_200": 1.0 }, "geometry": { "type": "Point", "coordinates": [ 37.621039, 55.671883, 0.0 ] } },
{ "type": "Feature", "properties": { "geo_id": 120, "Name": "Церковь Феодора Ушакова в Нагорном (действ.)", "temples_id": "25255", "prog_200": 1.0 }, "geometry": { "type": "Point", "coordinates": [ 37.620352, 55.67213, 0.0 ] } },
{ "type": "Feature", "properties": { "geo_id": 121, "Name": "Церковь Луки, архиепископа Крымского, в Митино (действ.)", "temples_id": "25257", "prog_200": 1.0 }, "geometry": { "type": "Point", "coordinates": [ 37.353923, 55.827683, 0.0 ] } },
{ "type": "Feature", "properties": { "geo_id": 122, "Name": "Церковь Двенадцати Апостолов в Ховрино (временная) (не сохр.)", "temples_id": "25296", "prog_200": 1.0 }, "geometry": { "type": "Point", "coordinates": [ 37.494754, 55.86934, 0.0 ] } },
{ "type": "Feature", "properties": { "geo_id": 123, "Name": "Церковь Двенадцати Апостолов в Ховрино (действ.)", "temples_id": "25297", "prog_200": 1.0 }, "geometry": { "type": "Point", "coordinates": [ 37.494745, 55.869507, 0.0 ] } },
{ "type": "Feature", "properties": { "geo_id": 124, "Name": "Церковь Царственных Страстотерпцев в Ясенево (действ.)", "temples_id": "25692", "prog_200": 1.0 }, "geometry": { "type": "Point", "coordinates": [ 37.529948, 55.599451, 0.0 ] } },
{ "type": "Feature", "properties": { "geo_id": 125, "Name": "Церковь Серафима Саровского в Кожухове (действ.)", "temples_id": "25832", "prog_200": 1.0 }, "geometry": { "type": "Point", "coordinates": [ 37.908536, 55.715387, 0.0 ] } },
{ "type": "Feature", "properties": { "geo_id": 126, "Name": "Церковь Моисея Мурина в Южном Бутово (деревянная) (действ.)", "temples_id": "25838", "prog_200": 1.0 }, "geometry": { "type": "Point", "coordinates": [ 37.576839, 55.513518, 0.0 ] } },
{ "type": "Feature", "properties": { "geo_id": 127, "Name": "Церковь Моисея Мурина в Южном Бутово (строит.)", "temples_id": "25839", "prog_200": 1.0 }, "geometry": { "type": "Point", "coordinates": [ 37.576852, 55.513504, 0.0 ] } },
{ "type": "Feature", "properties": { "geo_id": 128, "Name": "Церковь Владимира, митрополита Киевского, в Южном Бутово (деревянная) (действ.)", "temples_id": "25840", "prog_200": 1.0 }, "geometry": { "type": "Point", "coordinates": [ 37.591384, 55.505608, 0.0 ] } },
{ "type": "Feature", "properties": { "geo_id": 129, "Name": "Церковь Владимира, митрополита Киевского, в Южном Бутово (строит.)", "temples_id": "25841", "prog_200": 1.0 }, "geometry": { "type": "Point", "coordinates": [ 37.591657, 55.505604, 0.0 ] } },
{ "type": "Feature", "properties": { "geo_id": 130, "Name": "Церковь Иконы Божией Матери Казанская в Мещерском (действ.)", "temples_id": "25843", "prog_200": 1.0 }, "geometry": { "type": "Point", "coordinates": [ 37.408795, 55.675613, 0.0 ] } },
{ "type": "Feature", "properties": { "geo_id": 131, "Name": "Церковь Иконы Божией Матери Споручница Грешных в Косино-Ухтомском (действ.)", "temples_id": "25847", "prog_200": 1.0 }, "geometry": { "type": "Point", "coordinates": [ 37.872019, 55.702999, 0.0 ] } },
{ "type": "Feature", "properties": { "geo_id": 132, "Name": "Церковь Новомучеников и Исповедников Российских в Новокосино (действ.)", "temples_id": "25848", "prog_200": 1.0 }, "geometry": { "type": "Point", "coordinates": [ 37.879857, 55.742165, 0.0 ] } },
{ "type": "Feature", "properties": { "geo_id": 133, "Name": "Церковь Веры, Надежды, Любови и Софии во Внуково (деревянная) (действ.)", "temples_id": "25849", "prog_200": 1.0 }, "geometry": { "type": "Point", "coordinates": [ 37.306181, 55.615245, 0.0 ] } },
{ "type": "Feature", "properties": { "geo_id": 134, "Name": "Церковь Веры, Надежды, Любови и Софии во Внуково (строит.)", "temples_id": "25850", "prog_200": 1.0 }, "geometry": { "type": "Point", "coordinates": [ 37.306058, 55.61537, 0.0 ] } },
{ "type": "Feature", "properties": { "geo_id": 135, "Name": "Церковь Всех Святых в Митино (действ.)", "temples_id": "25851", "prog_200": 1.0 }, "geometry": { "type": "Point", "coordinates": [ 37.35392, 55.827577, 0.0 ] } },
{ "type": "Feature", "properties": { "geo_id": 136, "Name": "Церковь Константина и Елены в Митино (действ.)", "temples_id": "25852", "prog_200": 1.0 }, "geometry": { "type": "Point", "coordinates": [ 37.373501, 55.838992, 0.0 ] } },
{ "type": "Feature", "properties": { "geo_id": 137, "Name": "Церковь Спиридона, епископа Тримифунтского, в Коптево (строит.)", "temples_id": "25908", "prog_200": 1.0 }, "geometry": { "type": "Point", "coordinates": [ 37.528471, 55.830545, 0.0 ] } },
{ "type": "Feature", "properties": { "geo_id": 138, "Name": "Церковь Игнатия Богоносца на Верейской (действ.)", "temples_id": "25910", "prog_200": 1.0 }, "geometry": { "type": "Point", "coordinates": [ 37.449192, 55.709783, 0.0 ] } },
{ "type": "Feature", "properties": { "geo_id": 139, "Name": "Церковь Димитрия Солунского в Хорошёво-Мнёвниках (действ.)", "temples_id": "25911", "prog_200": 1.0 }, "geometry": { "type": "Point", "coordinates": [ 37.48105, 55.787525, 0.0 ] } },
{ "type": "Feature", "properties": { "geo_id": 140, "Name": "Церковь Николая Чудотворца в Щукино (каменная) (строит.)", "temples_id": "25912", "prog_200": 1.0 }, "geometry": { "type": "Point", "coordinates": [ 37.463901, 55.810272, 0.0 ] } },
{ "type": "Feature", "properties": { "geo_id": 141, "Name": "Церковь Александра Невского в Хорошёво-Мнёвниках (действ.)", "temples_id": "25913", "prog_200": 1.0 }, "geometry": { "type": "Point", "coordinates": [ 37.489617, 55.773476, 0.0 ] } },
{ "type": "Feature", "properties": { "geo_id": 142, "Name": "Церковь Ольги равноапостольной в Останкино (действ.)", "temples_id": "25915", "prog_200": 1.0 }, "geometry": { "type": "Point", "coordinates": [ 37.619091, 55.814753, 0.0 ] } },
{ "type": "Feature", "properties": { "geo_id": 143, "Name": "Церковь Алексия Московского (Мечева) праведного в Бескудниково (действ.)", "temples_id": "25916", "prog_200": 1.0 }, "geometry": { "type": "Point", "coordinates": [ 37.559975, 55.846146, 0.0 ] } },
{ "type": "Feature", "properties": { "geo_id": 144, "Name": "Церковь Серафима Саровского в Восточном Дегунино (строит.)", "temples_id": "25917", "prog_200": 1.0 }, "geometry": { "type": "Point", "coordinates": [ 37.559545, 55.873103, 0.0 ] } },
{ "type": "Feature", "properties": { "geo_id": 145, "Name": "Церковь Андрея Рублева на Верхней Масловке (действ.)", "temples_id": "25922", "prog_200": 1.0 }, "geometry": { "type": "Point", "coordinates": [ 37.568909, 55.791436, 0.0 ] } },
{ "type": "Feature", "properties": { "geo_id": 146, "Name": "Церковь Кирилла и Мефодия в Ростокино (действ.)", "temples_id": "25925", "prog_200": 1.0 }, "geometry": { "type": "Point", "coordinates": [ 37.658097, 55.832104, 0.0 ] } },
{ "type": "Feature", "properties": { "geo_id": 147, "Name": "Церковь Димитрия, митрополита Ростовского, в Рязанском (строит.)", "temples_id": "25931", "prog_200": 1.0 }, "geometry": { "type": "Point", "coordinates": [ 37.800134, 55.721106, 0.0 ] } },
{ "type": "Feature", "properties": { "geo_id": 148, "Name": "Церковь Владимира равноапостольного в Новогиреево (строит.)", "temples_id": "25932", "prog_200": 1.0 }, "geometry": { "type": "Point", "coordinates": [ 37.797278, 55.743599, 0.0 ] } },
{ "type": "Feature", "properties": { "geo_id": 149, "Name": "Церковь Саввы Сторожевского в Северном Измайлово (действ.)", "temples_id": "25934", "prog_200": 1.0 }, "geometry": { "type": "Point", "coordinates": [ 37.781257, 55.803271, 0.0 ] } },
{ "type": "Feature", "properties": { "geo_id": 150, "Name": "Церковь Александра Свирского на Соколиной Горе (строит.)", "temples_id": "25939", "prog_200": 1.0 }, "geometry": { "type": "Point", "coordinates": [ 37.744509, 55.760389, 0.0 ] } },
{ "type": "Feature", "properties": { "geo_id": 151, "Name": "Церковь Воскресения Словущего в Марьинском парке (строит.)", "temples_id": "25944", "prog_200": 1.0 }, "geometry": { "type": "Point", "coordinates": [ 37.767916, 55.667608, 0.0 ] } },
{ "type": "Feature", "properties": { "geo_id": 152, "Name": "Церковь Артемия Веркольского в Марьино (строит.)", "temples_id": "25945", "prog_200": 1.0 }, "geometry": { "type": "Point", "coordinates": [ 37.757706, 55.660522, 0.0 ] } },
{ "type": "Feature", "properties": { "geo_id": 153, "Name": "Церковь Александра Свирского в Грайвороново (действ.)", "temples_id": "25946", "prog_200": 1.0 }, "geometry": { "type": "Point", "coordinates": [ 37.731014, 55.719496, 0.0 ] } },
{ "type": "Feature", "properties": { "geo_id": 154, "Name": "Церковь Анатолия и Протолеона Никомидийских в Марьино (действ.)", "temples_id": "25948", "prog_200": 1.0 }, "geometry": { "type": "Point", "coordinates": [ 37.757706, 55.660522, 0.0 ] } },
{ "type": "Feature", "properties": { "geo_id": 155, "Name": "Церковь Троицы Живоначальной в Чертаново (каменная) (строит.)", "temples_id": "25949", "prog_200": 1.0 }, "geometry": { "type": "Point", "coordinates": [ 37.584172, 55.616129, 0.0 ] } },
{ "type": "Feature", "properties": { "geo_id": 156, "Name": "Церковь Веры, Надежды, Любови и Софии в Чертаново (действ.)", "temples_id": "25950", "prog_200": 1.0 }, "geometry": { "type": "Point", "coordinates": [ 37.622732, 55.607939, 0.0 ] } },
{ "type": "Feature", "properties": { "geo_id": 157, "Name": "Церковь Алексия, человека Божия, в Садовниках (действ.)", "temples_id": "25951", "prog_200": 1.0 }, "geometry": { "type": "Point", "coordinates": [ 37.651823, 55.676786, 0.0 ] } },
{ "type": "Feature", "properties": { "geo_id": 158, "Name": "Церковь Иконы Божией Матери Спорительница Хлебов в Бирюлеве Восточном (действ.)", "temples_id": "25952", "prog_200": 1.0 }, "geometry": { "type": "Point", "coordinates": [ 37.693985, 55.582728, 0.0 ] } },
{ "type": "Feature", "properties": { "geo_id": 159, "Name": "Церковь Иконы Божией Матери Почаевская в Южном Чертаново (действ.)", "temples_id": "25953", "prog_200": 1.0 }, "geometry": { "type": "Point", "coordinates": [ 37.602101, 55.60141, 0.0 ] } },
{ "type": "Feature", "properties": { "geo_id": 160, "Name": "Церковь Петра и Павла в Тропарево (действ.)", "temples_id": "25954", "prog_200": 1.0 }, "geometry": { "type": "Point", "coordinates": [ 37.491799, 55.669397, 0.0 ] } },
{ "type": "Feature", "properties": { "geo_id": 161, "Name": "Церковь Николая Чудотворца в Бирюлево (каменная) (действ.)", "temples_id": "25955", "prog_200": 1.0 }, "geometry": { "type": "Point", "coordinates": [ 37.652299, 55.590091, 0.0 ] } },
{ "type": "Feature", "properties": { "geo_id": 162, "Name": "Церковь Владимира и Ольги равноапостольных в Черемушках (временная) (действ.)", "temples_id": "25965", "prog_200": 1.0 }, "geometry": { "type": "Point", "coordinates": [ 37.546881, 55.675937, 0.0 ] } },
{ "type": "Feature", "properties": { "geo_id": 163, "Name": "Церковь Ксении Петербургской в ЖК Зиларт (временная) (действ.)", "temples_id": "25966", "prog_200": 1.0 }, "geometry": { "type": "Point", "coordinates": [ 37.635356, 55.701741, 0.0 ] } },
{ "type": "Feature", "properties": { "geo_id": 164, "Name": "Церковь Георгия Победоносца в Куркино (временная) (действ.)", "temples_id": "25967", "prog_200": 1.0 }, "geometry": { "type": "Point", "coordinates": [ 37.3934, 55.890569, 0.0 ] } },
{ "type": "Feature", "properties": { "geo_id": 165, "Name": "Церковь Георгия Победоносца в Зеленограде (действ.)", "temples_id": "25968", "prog_200": 1.0 }, "geometry": { "type": "Point", "coordinates": [ 37.154481, 55.969701, 0.0 ] } },
{ "type": "Feature", "properties": { "geo_id": 166, "Name": "Церковь Успения Пресвятой Богородицы в Хорошёво-Мнёвниках (действ.)", "temples_id": "25972", "prog_200": 1.0 }, "geometry": { "type": "Point", "coordinates": [ 37.490217, 55.773448, 0.0 ] } },
{ "type": "Feature", "properties": { "geo_id": 167, "Name": "Церковь Трех Святителей Великих в Раменках (действ.)", "temples_id": "27061", "prog_200": 1.0 }, "geometry": { "type": "Point", "coordinates": [ 37.498666, 55.708763, 0.0 ] } },
{ "type": "Feature", "properties": { "geo_id": 168, "Name": "Церковь Николая Чудотворца в Ивановском (действ.)", "temples_id": "27071", "prog_200": 1.0 }, "geometry": { "type": "Point", "coordinates": [ 37.83092, 55.775221, 0.0 ] } },
{ "type": "Feature", "properties": { "geo_id": 169, "Name": "Церковь Сретения Господня в Западном Бирюлёво (действ.)", "temples_id": "27072", "prog_200": 1.0 }, "geometry": { "type": "Point", "coordinates": [ 37.654581, 55.58015, 0.0 ] } },
{ "type": "Feature", "properties": { "geo_id": 170, "Name": "Церковь Даниила Пророка на Кантемировской (действ.)", "temples_id": "27073", "prog_200": 1.0 }, "geometry": { "type": "Point", "coordinates": [ 37.653581, 55.642316, 0.0 ] } },
{ "type": "Feature", "properties": { "geo_id": 171, "Name": "Церковь Ермогена, патриарха Всероссийского, в Зюзино (действ.)", "temples_id": "27074", "prog_200": 1.0 }, "geometry": { "type": "Point", "coordinates": [ 37.604792, 55.6428, 0.0 ] } },
{ "type": "Feature", "properties": { "geo_id": 172, "Name": "Церковь Иконы Божией Матери Нечаянная Радость в Чертаново (действ.)", "temples_id": "27075", "prog_200": 1.0 }, "geometry": { "type": "Point", "coordinates": [ 37.5994, 55.623242, 0.0 ] } },
{ "type": "Feature", "properties": { "geo_id": 173, "Name": "Церковь Олега Брянского в поселке подсобного хозяйства Минзаг (действ.)", "temples_id": "27132", "prog_200": 1.0 }, "geometry": { "type": "Point", "coordinates": [ 37.329566, 55.444811, 0.0 ] } },
{ "type": "Feature", "properties": { "geo_id": 174, "Name": "Церковь Преображения Господня в Рогово (действ.)", "temples_id": "27133", "prog_200": 1.0 }, "geometry": { "type": "Point", "coordinates": [ 37.077691, 55.218368, 0.0 ] } },
{ "type": "Feature", "properties": { "geo_id": 175, "Name": "Церковь Иконы Божией Матери Казанская в Лосиноостровской (новая) (действ.)", "temples_id": "28160", "prog_200": 1.0 }, "geometry": { "type": "Point", "coordinates": [ 37.683805, 55.864178, 0.0 ] } },
{ "type": "Feature", "properties": { "geo_id": 176, "Name": "Церковь Марии Магдалины на Сетуни (временная) (действ.)", "temples_id": "28594", "prog_200": 1.0 }, "geometry": { "type": "Point", "coordinates": [ 37.533987, 55.730619, 0.0 ] } },
{ "type": "Feature", "properties": { "geo_id": 177, "Name": "Церковь Марии Магдалины на Сетуни (строит.)", "temples_id": "28595", "prog_200": 1.0 }, "geometry": { "type": "Point", "coordinates": [ 37.534016, 55.730471, 0.0 ] } },
{ "type": "Feature", "properties": { "geo_id": 178, "Name": "Церковь Петра и Павла в Люблино (новая) (действ.)", "temples_id": "28752", "prog_200": 1.0 }, "geometry": { "type": "Point", "coordinates": [ 37.77916, 55.679836, 0.0 ] } },
{ "type": "Feature", "properties": { "geo_id": 179, "Name": "Церковь Андрея Первозванного в Люблино (строит.)", "temples_id": "28851", "prog_200": 1.0 }, "geometry": { "type": "Point", "coordinates": [ 37.763162, 55.683203, 0.0 ] } },
{ "type": "Feature", "properties": { "geo_id": 180, "Name": "Церковь Иконы Божией Матери Отрада или Утешение на Каховке (каменная) (строит.)", "temples_id": "28861", "prog_200": 1.0 }, "geometry": { "type": "Point", "coordinates": [ 37.597358, 55.653402, 0.0 ] } },
{ "type": "Feature", "properties": { "geo_id": 181, "Name": "Церковь Ксении Петербургской на Березовой аллее (действ.)", "temples_id": "29334", "prog_200": 1.0 }, "geometry": { "type": "Point", "coordinates": [ 37.620516, 55.848463, 0.0 ] } },
{ "type": "Feature", "properties": { "geo_id": 182, "Name": "Церковь Владимира равноапостольного в Тушино (строит.)", "temples_id": "29336", "prog_200": 1.0 }, "geometry": { "type": "Point", "coordinates": [ 37.421581, 55.81283, 0.0 ] } },
{ "type": "Feature", "properties": { "geo_id": 183, "Name": "Церковь Космы и Дамиана Ассийских в Северном Тушино (строит.)", "temples_id": "29339", "prog_200": 1.0 }, "geometry": { "type": "Point", "coordinates": [ 37.433942, 55.865061, 0.0 ] } },
{ "type": "Feature", "properties": { "geo_id": 184, "Name": "Церковь Спиридона, епископа Тримифунтского, в Южном Бутово (действ.)", "temples_id": "29342", "prog_200": 1.0 }, "geometry": { "type": "Point", "coordinates": [ 37.556643, 55.541385, 0.0 ] } },
{ "type": "Feature", "properties": { "geo_id": 185, "Name": "Церковь Иоанна, архиепископа Рижского, в Новоподрезково (действ.)", "temples_id": "29346", "prog_200": 1.0 }, "geometry": { "type": "Point", "coordinates": [ 37.347871, 55.936522, 0.0 ] } },
{ "type": "Feature", "properties": { "geo_id": 186, "Name": "Церковь Илии Пророка в Солнцево (действ.)", "temples_id": "29347", "prog_200": 1.0 }, "geometry": { "type": "Point", "coordinates": [ 37.403995, 55.639475, 0.0 ] } },
{ "type": "Feature", "properties": { "geo_id": 187, "Name": "Церковь Луки, архиепископа Крымского, при больнице имени Виноградова (строит.)", "temples_id": "29367", "prog_200": 1.0 }, "geometry": { "type": "Point", "coordinates": [ 37.557551, 55.687863, 0.0 ] } },
{ "type": "Feature", "properties": { "geo_id": 188, "Name": "Церковь Владимира равноапостольного в Покровском-Стрешнево (строит.)", "temples_id": "30096", "prog_200": 1.0 }, "geometry": { "type": "Point", "coordinates": [ 37.421656, 55.812881, 0.0 ] } },
{ "type": "Feature", "properties": { "geo_id": 189, "Name": "Церковь Серафима Саровского в Шелепихе (действ.)", "temples_id": "30102", "prog_200": 1.0 }, "geometry": { "type": "Point", "coordinates": [ 37.50567, 55.763494, 0.0 ] } },
{ "type": "Feature", "properties": { "geo_id": 190, "Name": "Церковь Серафима Саровского в Раево (действ.)", "temples_id": "6967", "prog_200": 1.0 }, "geometry": { "type": "Point", "coordinates": [ 37.666946, 55.883167, 0.0 ] } },
{ "type": "Feature", "properties": { "geo_id": 191, "Name": "Церковь Всех Святых, в земле Российской просиявших, в Новокосино (действ.)", "temples_id": "9141", "prog_200": 1.0 }, "geometry": { "type": "Point", "coordinates": [ 37.847091, 55.735292, 0.0 ] } },
{ "type": "Feature", "properties": { "geo_id": 192, "Name": "Церковь Иконы Божией Матери Почаевская в Митино (действ.)", "temples_id": "9644", "prog_200": 1.0 }, "geometry": { "type": "Point", "coordinates": [ 37.372354, 55.839356, 0.0 ] } },
{ "type": "Feature", "properties": { "geo_id": 193, "Name": "Церковь Благовещения Пресвятой Богородицы в Федосьино (действ.)", "temples_id": "9940", "prog_200": 1.0 }, "geometry": { "type": "Point", "coordinates": [ 37.336665, 55.641926, 0.0 ] } }
]
}
